[
    {
        "Cityname": "Krakow",
        "lat": 50.083328,
        "lon": 19.91667
    },
    {
        "Cityname": "Katowice",
        "lat": 50.258419,
        "lon": 19.02754
        
    },
    {
        "Cityname": "Warszawa",
        "lat": 52.233101,
        "lon": 21.061399
        
    },
    {
        "Cityname": "Poznan",
        "lat": 52.406921,
        "lon": 16.92993
        
    },
    {
        "Cityname": "Wroclaw",
        "lat": 51.099998,
        "lon": 17.033331
        
    },
    {
        "Cityname": "Berlin",
        "lat": 52.566669,
        "lon": 13.33333
        
    },
    {
        "Cityname": "Milan",
        "lat": 35.919788,
        "lon": -88.758949
    },
    {
        "Cityname": "Milano",
        "lat": 45.464272,
        "lon": 9.18951
    },{
        "Cityname" : "Malaga",
        "lat": 36.720161,
        "lon": -4.42034
    }
]